[{"lat":"18.9939329","lng":"72.8225733","id":7256039,"name":"Marshalls - Wallpaper ","description":"Marshall Wallcoverings","phone":" 022 40702205\/06\/12","email":"Esales@marshallsindia.com","tagsvalue":"Wallpapers","tags":[{"tag":"Wallpapers"}],"schedule":"10.30 AM – 8.00 PM\r<br>Weekly off - Sunday\r<br>Contact Person : Arjun","store_image":"\/\/cdn.shopify.com\/s\/files\/1\/0491\/8496\/4771\/t\/3\/assets\/scasl_1617266162marshalls-wall-coverings-store-delhi---chittaranjan-park.jpg_compact.crdo","address":"Marshall House : Off Dr. E-Moses Road, Gandhi Nagar, Worli, Mumbai - 400018","country":"India","state":"Maharashtra","city":"Mumbai","postal":"400018","priority":1},{"lat":"28.6424915","lng":"77.1326969","id":7256060,"name":"Glen - Home Appliances ","phone":"9266678922","tagsvalue":"Home Applainces","tags":[{"tag":"Home Applainces"}],"address":"Plot No. 14, Mansarovar Garden, Kirti Nager PinCode: 110015","country":"India","state":"Delhi","city":"Delhi NCR","postal":"110015","priority":1},{"lat":"28.4479546","lng":"77.0992365","id":7256061,"name":"Glen - Home Appliances ","phone":"9266678940","tagsvalue":"Home Applainces","tags":[{"tag":"Home Applainces"}],"address":"202 C, South Point Mall,Golf Course Road,DLF Phase V","country":"India","state":"Delhi","city":"Delhi NCR","postal":"122002","priority":1},{"lat":"28.4649834","lng":"77.3121591","id":7256062,"name":"Glen - Home Appliances ","phone":"9910058686","tagsvalue":"Home Applainces","tags":[{"tag":"Home Applainces"}],"address":"I- 34, DLF industrial Area, Phase 1, pin code 121003","country":"India","state":"Haryana","city":"Faridabad","postal":"121003","priority":1},{"lat":"28.471221","lng":"77.3156604","id":7256063,"name":"Glen - Home Appliances ","phone":"9818466030\/9711448785","tagsvalue":"Home Applainces","tags":[{"tag":"Home Applainces"}],"address":"Address: Shop No. 30 & 31, Ashoka Enclave Part 2, (Near Kanishka Tower Bye Pass Road) Sectore 37","country":"India","state":"Haryana","city":"Faridabad","postal":"121003","priority":1},{"lat":"19.020943","lng":"72.8383008","id":7256064,"name":"Glen - Home Appliances ","phone":"7045607844\/ 9920083991","tagsvalue":"Home Applainces","tags":[{"tag":"Home Applainces"}],"address":"Address: Shop No 1, Swapna Bhoomi, A Wing, Ground Floor, S K Bhole Road, Near Portuguese Church,  400028","country":"India","state":"Maharashtra","city":"Mumbai","postal":"40028","priority":1},{"lat":"12.9542499","lng":"77.656118","id":7256065,"name":"Faber - Home Appliances ","phone":"9019961814","tagsvalue":"Home Applainces","tags":[{"tag":"Home Applainces"}],"address":"Ground Floor, No 11, KR Garden 1st Main,Venkataswamy Reddy Layout, Koramangala, Bengaluru -560034Landmark - 80 Feet road, diagonally opp. to Koramangala Decathlon","country":"India","state":"Karnataka","city":"Bangalore","postal":"560034","priority":1},{"lat":"13.0408874","lng":"77.5897773","id":7256066,"name":"Faber - Home Appliances ","phone":"9019961814","tagsvalue":"Home Applainces","tags":[{"tag":"Home Applainces"}],"address":"No 74, Bellary Main RoadGanganagarBengaluru, Karnataka, 560024","country":"India","state":"Karnataka","city":"Bangalore","postal":"560024","priority":1},{"lat":"19.0194628","lng":"72.8372367","id":7256067,"name":"Marshalls - Wallpaper ","phone":" 022 40702205\/06\/12","email":"Esales@marshallsindia.com","tagsvalue":"Wallpapers","tags":[{"tag":"Wallpapers"}],"schedule":"Store timing - 10.30 AM to 8.00 PM\r<br>Weekly off – Sunday","address":"1, Bhavna, 422, 1, Bhavna, 422Veer Savarkar Marg,Prabhadevi, Mumbai - 400 025","country":"India","state":"Maharashtra","city":"Mumbai","postal":"400025","priority":1},{"lat":"19.106976","lng":"72.839891","id":7256068,"name":"Marshalls - Wallpaper ","phone":" 022 40702205\/06\/12","email":"Esales@marshallsindia.com","tagsvalue":"Wallpapers","tags":[{"tag":"Wallpapers"}],"schedule":"Store timing - 10.30 AM to 8.00 PM\r<br>Weekly off – Sunday","address":"2, Vaibhav Apts, 140, S.V. Road, Irla, Vile Parle (West), Opp. Irla Nursing Home, Mumbai - 400 056.","country":"India","state":"Maharashtra","city":"Mumbai","postal":"400056","priority":1},{"lat":"19.2268611","lng":"72.9767624","id":7256069,"name":"Marshalls - Wallpaper ","phone":" 022 40702205\/06\/12","email":"Esales@marshallsindia.com","tagsvalue":"Wallpapers","tags":[{"tag":"Wallpapers"}],"schedule":"Store timing - 10.30 AM to 8.00 PM\r<br>Weekly off – Sunday","address":"#1 Kavyam, Silverador,Botique Hotel Building, Manpada, Ghodbunder Road, Thane - 400607","country":"India","state":"Maharashtra","city":"Mumbai","postal":"400607","priority":1},{"lat":"12.9161798","lng":"77.5951773","id":7256070,"name":"Marshalls - Wallpaper ","phone":"7899826091","email":"sumathi@marshallsindia.com","tagsvalue":"Wallpapers","tags":[{"tag":"Wallpapers"}],"schedule":"Store timing - 10.30 AM to 8.00 PM\r<br>Weekly off – Sunday","address":"Shree Sai Amrutham, 1481, New 23 28th Main Road, South End, B cross 9th Block,Jayanagar, Ward No.177 Bengaluru - 560069.","country":"India","state":"Karnataka","city":"Bangalore","postal":"560069","priority":1},{"lat":"18.4860865","lng":"73.888538","id":7256071,"name":"Marshalls - Wallpaper ","phone":" 022 40702205\/06\/12","email":"Esales@marshallsindia.com","tagsvalue":"Wallpapers","tags":[{"tag":"Wallpapers"}],"schedule":"Store timing - 10.30 AM to 8.00 PM\r<br>Weekly off – Sunday","address":"Shop No. 2, Winners Court, Next to ZKS Restaurant, Lulla Nagar, Pune - 411 040","country":"India","state":"Maharashtra","city":"Pune","postal":"411040","priority":1},{"lat":"18.557737","lng":"73.793583","id":7256072,"name":"Marshalls - Wallpaper ","phone":" 022 40702205\/06\/12","email":"Esales@marshallsindia.com","tagsvalue":"Wallpapers","tags":[{"tag":"Wallpapers"}],"schedule":"Store timing - 10.30 AM to 7.30 PM\r<br>Weekly off – Open on all days","address":"12, Shiv Shakti Complex, Gr. Floor, Baner Road. Baner, Pune - 411 045","country":"India","state":"Maharashtra","city":"Pune","postal":"411045","priority":1},{"lat":"18.5392324","lng":"73.9348203","id":7256073,"name":"Marshalls - Wallpaper ","phone":" 022 40702205\/06\/12","email":"Esales@marshallsindia.com","tagsvalue":"Wallpapers","tags":[{"tag":"Wallpapers"}],"schedule":"Store timing - 10.30 AM to 7.30 PM\r<br>Weekly off – Open on all days","address":"Survey No. 20\/1, Nilgiri Bldg, Near Sainath Nagar Chowk, Kharadi, Pune - 411 014","country":"India","state":"Maharashtra","city":"Pune","postal":"411014","priority":1},{"lat":"28.5397842","lng":"77.2489726","id":7256074,"name":"Marshalls - Wallpaper ","phone":"8745830836","email":"anjana@marshallsindia.com","tagsvalue":"Wallpapers","tags":[{"tag":"Wallpapers"}],"schedule":"Store timing - 10.30 AM to 8.00 PM\r<br>Weekly off – Sunday","address":"Chittaranjan Park, 40\/57 Chittaranjan Park,Near Nehru Apartment,New Delhi - 110 019.","country":"India","state":"Delhi","city":"Delhi","postal":"110019","priority":1},{"lat":"28.536189","lng":"77.27046","id":7256075,"name":"Mirrorwalla - Mirrors ","phone":" 9716867528","tagsvalue":"Mirrors","tags":[{"tag":"Mirrors"}],"schedule":"Store timing – 10.00 AM to 7.00 PM","address":"E-43\/1 Second floor Okhla Phase-2, New Delhi-110020","country":"India","state":"Delhi","city":"Delhi","postal":"110020","priority":1},{"lat":"12.9706573","lng":"77.5990717","id":7256076,"name":"Montage -  Mirrors & Art Prints","phone":"9611503626","email":"montageframe@gmail.com","tagsvalue":"Art Prints","tags":[{"tag":"Art Prints"}],"schedule":"Store timing - 11.00 AM to 7.00 PM\r<br>Weekly off – Open on all days","address":"MONTAGE54, Vittal Mallya Road,Bangalore - 560001","country":"India","state":"Karnataka","city":"Bangalore","postal":"560001","priority":1},{"lat":"12.9064145","lng":"77.5824492","id":7256077,"name":"Montage - Mirrors & Art Prints","phone":"9611503626","email":"montageframe@gmail.com","tagsvalue":"Art Prints","tags":[{"tag":"Art Prints"}],"schedule":"Store timing - 11.00 AM to 7.00 PM\r<br>Weekly off – Open on all days","address":"No.165, 15th Cross, 20th Main Rd, J. P. Nagar, Bengaluru, Karnataka 560078","country":"India","state":"Karnataka","city":"Bangalore","postal":"560078","priority":1},{"lat":"12.9369652","lng":"77.6271246","id":7256078,"name":"R.L. PROPERTIES & INVESTMENTS  - Lighting Store","phone":"9886240394","email":"bimalgoenka@gmail.com","tagsvalue":"Lights","tags":[{"tag":"Lights"}],"schedule":"Store timing - 11.00 AM to 7.00 PM\r<br>Weekly off – Open on all days","address":"606, 80 Feet Rd, Koramangala 4th Block, Koramangala, Bengaluru, Karnataka 560034","country":"India","state":"Karnataka","city":"Bangalore","postal":"560034","priority":1},{"lat":"12.9496818","lng":"77.6997998","id":7256079,"name":"R.L. Electronics  - Lighting Store","phone":"9900035616","email":"bimalgoenka@gmail.com","tagsvalue":"Lights","tags":[{"tag":"Lights"}],"schedule":"Store timing - 11.00 AM to 7.00 PM\r<br>Weekly off – Open on all days","address":"# 90\/4, OUTER RING ROAD, Marathahalli, Bangalore - 560037, BELOW MEGHANA FOODS ","country":"India","state":"Karnataka","city":"Bangalore","postal":"560037","priority":1},{"lat":"28.592179","lng":"77.3334841","id":7256080,"name":"Tecolite ensol LLP - Lighting Store","phone":"9899399899","tagsvalue":"Lights","tags":[{"tag":"Lights"}],"schedule":"Store timing - 10.00 AM to 7.00 PM\r<br>Weekly off – Sunday","address":"D-324, Sector 10. Noida. 201301","country":"India","city":"Noida","postal":"201301","priority":1},{"lat":"28.4830039","lng":"77.0980057","id":7256081,"name":"LED Smart Store - Lighting Store","phone":"9899885747","tagsvalue":"Lights","tags":[{"tag":"Lights"}],"schedule":"Store timing – 11.00 AM to 7.00 PM\r<br>Weekly off – Tuesday","address":"1st floor, Opp Metro Pillar 54, Sikanderpur Market, Gurugram 122002","country":"India","state":"Haryana","city":"Gurgoan","postal":"122002","priority":1},{"lat":"9.975563","lng":"76.2978761","id":7256082,"name":"Premium International - Lighting Store","phone":"9249389608","tagsvalue":"Lights","tags":[{"tag":"Lights"}],"schedule":"Store timing - 10.30 AM to 8.00 PM\r<br>Weekly off – Sunday","address":"54\/819, KALOOR - KADAVANTHRA ROAD, NEAR KWA SEWAGE PUMP HOUSE, Ernakulam, Kerala","country":"India","state":"Kerala","city":"Cochin","priority":1},{"lat":"18.5004132","lng":"73.8658201","id":7256083,"name":"N. S. Jain & Co. Pvt. Ltd - Lighting Store","phone":"9881140741","tagsvalue":"Lights","tags":[{"tag":"Lights"}],"schedule":"Store timing - 10.00 AM to 7.00 PM\r<br>Weekly off – Sunday","address":"CST No. 407, Office No. 1 & 2, 1st Floor, Archies Court, Shankar Sheth Rd, Opp. Saraswati Petrol Pump, Pune, Maharashtra 411042","country":"India","state":"Maharashtra","city":"Pune","postal":"411042","priority":1},{"lat":"19.1724863","lng":"72.8559872","id":7256084,"name":"The Light Square - Lighting Store","phone":"9820533147","tagsvalue":"Lights","tags":[{"tag":"Lights"}],"schedule":"Store timing - 10.00 AM to 6.30 PM\r<br>Weekly off – Sunday","address":"The Light Square, B-17\/21, Ground floor, Durian Estate,Goregaon East,Goregaon - Mulund Link road, Mumbai -400063","country":"India","state":"Maharashtra","city":"Mumbai","postal":"400063","priority":1},{"lat":"13.0240883","lng":"77.6428294","id":7256085,"name":"The Light Artillery - Lighting Store","phone":"9632383983","tagsvalue":"Lights","tags":[{"tag":"Lights"}],"schedule":"Store timing - 11.00 AM to 8.00 PM\r<br>Weekly off – Open on all days","address":"No:430, Modi Building, 1st Floor, 6th B Main road, HRBR Layout,  Kalyan Nagar, Bengaluru, Karnataka 560043","country":"India","state":"Karnataka","city":"Bangalore","postal":"560043","priority":1},{"lat":"13.0552179","lng":"80.2497392","id":7256086,"name":"Leds World - Lighting Store ","phone":"9791084994","tagsvalue":"Lights","tags":[{"tag":"Lights"}],"schedule":"11.00 AM to 8.00 PM\r<br>Weekly off – Open on all days","address":" Ispahani Centre, Ground Floor, Nungambakkam High Road, Chennai -600032","country":"India","state":"Tamil Nadu","city":"Chennai","postal":"600032","priority":1},{"lat":"17.4066645","lng":"78.5146307","id":7256087,"name":"R W Industries - Lighting Store","phone":"9030267268\/9949628455","tagsvalue":"Lights","tags":[{"tag":"Lights"}],"schedule":"Store timing - 10.30 AM to 8.00 PM\r<br>Weekly off – Sunday","address":"Shop No. 3-73\/3HG1, Pippalguda Manikonda, Hyderabad--500089","country":"India","city":"Hyderabad","postal":"500089","priority":1},{"lat":"28.5731628","lng":"77.2280397","id":7256088,"name":"Aura - Lighting Store","phone":"9312230329","tagsvalue":"Lights","tags":[{"tag":"Lights"}],"schedule":" 10.30 AM to 8.00 PM\r<br>Weekly off – Monday","address":"803\/2, Arjun Nagar, Bhishma Pitamah Marg, Kotla Mubarakpur, New Delhi 110003 (Near Maruti Showroom)","country":"India","state":"Delhi","city":"New Delhi","postal":"110003","priority":1},{"lat":"19.1425497","lng":"72.8348218","id":7256089,"name":"Kaff - Home Appliances","phone":"7738546777","tagsvalue":"Home Applainces","tags":[{"tag":"Home Applainces"}],"address":"Unit No. 13, Gr Floor, Laxmi Plaza, Laxmi Industrial Estate, New Link Road,Andheri (E ), Mumbai-400053 M.N: 7738546777","country":"India","state":"Karnataka","city":"Bangalore","postal":"400053","priority":1},{"lat":"12.9997904","lng":"77.5569203","id":7256090,"name":"Kaff - Home Appliances","phone":"8095097771","tagsvalue":"Home Applainces","tags":[{"tag":"Home Applainces"}],"address":"NO.77, SRI SAI NILAYA, 3RD STAGE, RAJAJINAGAR, DR.RAJKUMAR ROAD, PRAKSHNAGAR, BENGALURU - 560 021, Mob:8095097771","country":"India","state":"Karnataka","city":"Bangalore","postal":"560021","priority":1},{"lat":"12.8873684","lng":"77.6413418","id":7256091,"name":"Kaff - Home Appliances","phone":"9538664226","tagsvalue":"Home Applainces","tags":[{"tag":"Home Applainces"}],"address":"# 49\/7, 1ST FLOOR, OPP. DAYANANDA SAGAR COLLEGE, NEAR KUDLU GATE SIGNAL, KUDLU GATE, BENGALURU - 560 068, MOB;9538664226","country":"India","state":"Karnataka","city":"Bangalore","postal":"560068","priority":1},{"lat":"28.5298348","lng":"77.2196358","id":7256092,"name":"Kaff - Home Appliances","phone":"9873193042 \/ 7838333694","tagsvalue":"Home Applainces","tags":[{"tag":"Home Applainces"}],"address":"Shop No. 25, Ground Floor, MGF Metropolitian Mall, Saket, New Delhi-110017, Mob.: 09873193042","country":"India","state":"Delhi","city":"Delhi","postal":"110017","priority":1},{"lat":"28.5687799","lng":"77.2255709","id":7256093,"name":"Kaff - Home Appliances","phone":"9999134238","tagsvalue":"Home Applainces","tags":[{"tag":"Home Applainces"}],"address":"1512, WAZIR NAGAR, Bhishma Pitamah Marg, opp. Defence Colony,South Extension, Kotla Mubarakpur, New Delhi, Delhi 110033, Mob.:","country":"India","state":"Delhi","city":"Delhi","postal":"110033","priority":1},{"lat":"28.6277382","lng":"77.1001022","id":7256094,"name":"Kaff - Home Appliances","phone":"9910601704, 9810339526","tagsvalue":"Home Applainces","tags":[{"tag":"Home Applainces"}],"address":"WZ-300A, GL-11, G Block, Hari Nagar, Jail Road, Delhi - 110058Contact : 9999875166, 9910601704","country":"India","state":"Delhi","city":"Delhi","postal":"110058","priority":1},{"lat":"28.6338102","lng":"77.2829261","id":7256095,"name":"Kaff - Home Appliances","phone":"9999134238","tagsvalue":"Home Applainces","tags":[{"tag":"Home Applainces"}],"address":"F- 153, Main Road, Near Ambedkar Gate, Jagat Puri, Delhi, 110051","country":"India","state":"Delhi","city":"Delhi","postal":"110051","priority":1},{"lat":"28.426832","lng":"77.056811","id":7256096,"name":"Kaff - Home Appliances","phone":"9910990140, 9811070647","tagsvalue":"Home Applainces","tags":[{"tag":"Home Applainces"}],"address":"KAFF Experience Centre, SS PLAZA 3RD FLOOR, SECTOR 47, Gurgaon","country":"India","state":"Haryana","city":"Gurgoan","postal":"122018","priority":1},{"lat":"28.640901","lng":"77.135925","id":7256097,"name":"Alex Daisy - Kids Furniture","phone":"9953792500","email":"nitin@tiffanydesigns.in","tagsvalue":"furniture","tags":[{"tag":"furniture"}],"address":"Alex Daisy4\/1 WHS Block 2Opp. Bharat Dharam Kanta, Kirti NagarNew Delhi – 110015","country":"India","state":"Delhi","city":"New Delhi","postal":"110015","priority":1},{"lat":"28.4923019","lng":"77.1452184","id":7256098,"name":"Alex Daisy - Kids Furniture","phone":"9873662500","email":"nitin@tiffanydesigns.in","tagsvalue":"furniture","tags":[{"tag":"furniture"}],"address":"Alex DaisyOpp. Metro Pillar No.120Ghitorni, MG RoadNew Delhi – 110030","country":"India","state":"Delhi","city":"New Delhi","postal":"110030","priority":1},{"lat":"12.9315341","lng":"77.6313858","id":7256099,"name":"Invisible Bed - Furniture","phone":"8884240909","email":"kishore@invisiblebed.com","tagsvalue":"Furniture","tags":[{"tag":"Furniture"}],"address":"#298, 8th A Main Rd, Koramangala 4th Block, Koramangala, Bengaluru, Karnataka 560034","country":"India","state":"Karnataka","city":"Bangalore","postal":"560034","priority":1},{"lat":"12.8832482","lng":"77.6074532","id":7256100,"name":"Peps  - Mattress","tagsvalue":"Mattress","tags":[{"tag":"Mattress"}],"address":"Above Ingu Tengu Hotel,Opp Mahindra Service Station,Arekere,Bannerghatta Road,Bengaluru  - 560076","country":"India","state":"Karnataka","city":"Bangalore","postal":"560076","priority":1},{"lat":"28.5649413","lng":"77.2456261","id":7256101,"name":"Parador - Tiles ","phone":"8972947512","tagsvalue":"Tiles","tags":[{"tag":"Tiles"}],"address":"Opulo, 21, Ring Rd, Pilanji, Block A, Lajpat Nagar, New Delhi, Delhi 110024","country":"India","state":"Delhi","city":"New Delhi","postal":"110024","priority":1},{"lat":"12.974754","lng":"77.619143","id":7256102,"name":"Parador - Tiles ","phone":"8972947512","tagsvalue":"Tiles","tags":[{"tag":"Tiles"}],"address":"Buildstar Projects Pvt Limited, 130\/1, Ulsoor Rd, Yellappa Garden, Hanumanthappa Layout, Halasuru, Bengaluru, Karnataka 560042","country":"India","state":"Karnataka","city":"Bangalore","postal":"560042","priority":1},{"lat":"12.9703762","lng":"77.6364883","id":7256103,"name":"Paradise Stile Studio - Tiles ","phone":"9739236663","tagsvalue":"Tiles","tags":[{"tag":"Tiles"}],"schedule":"10am - 8pm\r<br>Sunday Closed\r<br>Contact Person : Shravan","address":"3273, 11th Main Rd, near ESI Hospital, HAL 2nd Stage, Appareddipalya, Indiranagar, Bengaluru, Karnataka 560038","country":"India","state":"Karnataka","city":"Bangalore","postal":"560038","priority":1},{"lat":"12.974754","lng":"77.619143","id":7256104,"name":"Floor Depot - Tiles ","phone":"9845029109","tagsvalue":"Tiles","tags":[{"tag":"Tiles"}],"schedule":"10:00 am - 5.30 pm\r<br>Sunday closed","address":"C\/o Buildstar Projects Pvt Ltd130\/1 Ulsoor RoadLandmark- Puravankara Corporate office and next to HDFC Bank","country":"India","state":"Karnataka","city":"Bangalore","postal":"560008","priority":1},{"lat":"12.9800374","lng":"77.6134693","id":7313586,"name":"Skipper Furnishings - Curtains & Home Furnishings","description":"Curtains & Home Furnishings","phone":"8746959521","email":"skipper@radhafurnishings.com","tagsvalue":"Curtains & Home Furnishings","tags":[{"tag":"Curtains & Home Furnishings"}],"schedule":"10:30 AM - 8.00 PM\r<br>","address":" 42, Dickenson Rd, Hanumanthappa Layout, Sivanchetti Gardens, Bengaluru, Karnataka 560042","country":"India","state":"Karnataka","city":"Bangalore","postal":"560042","priority":1},{"lat":"28.6984836","lng":"77.1201781","id":7313587,"name":"Surprise Furnishings - Curtains & Home Furnishings","description":"Curtains & Home Furnishings","phone":"98711 44333","tagsvalue":"Curtains & Home Furnishings","tags":[{"tag":"Curtains & Home Furnishings"}],"schedule":"10:00 AM - 8.30 PM\r<br>Contact Person : Anuj","address":"A-6 A Block near Deepali Chowk, Saraswati Vihar, Pitam Pura, Delhi, 110034","country":"India","state":"Delhi","city":"Delhi","postal":"110034","priority":1},{"lat":"19.1332384","lng":"72.8254454","id":7313588,"name":"D'decor Home Store - Curtains & Home Furnishings","description":"Curtains & Home Furnishings","phone":"9821997545","email":"Faisal.khan@ddecor.com","tagsvalue":"Curtains & Home Furnishings","tags":[{"tag":"Curtains & Home Furnishings"}],"schedule":"10.00 am - 9.00 pm \r<br>Contact Person : Faisal Khan","address":"Shop no 9 & 10, Gr. floor,Sunil Niwas, Lokhandwala road,Near Kokilaben hospital, 4 Bungalows, Andheri (W), Mumbai 400 053","country":"India","state":"Maharashtra","city":"Mumbai","postal":"400053","priority":1},{"lat":"28.565413","lng":"77.238912","id":7313589,"name":"D'decor Home Store - Curtains & Home Furnishing","description":"Curtains & Home Furnishings","phone":"Landline :011-41436677Extension: 1450\/1451\/1452\/1453. Contact Person : Sameer Pant ","email":"lajpat.del@ddecor.com","tagsvalue":"Curtains & Home Furnishings","tags":[{"tag":"Curtains & Home Furnishings"}],"schedule":"10.00 am to 8.00 pm\r<br>","address":"67 Ring Road,Ground Floor, Lajpat Nagar - III,New Delhi","country":"India","state":"Delhi","city":"Delhi","postal":"110024","priority":1},{"lat":"13.0605883","lng":"80.2492794","id":7313590,"name":"D'decor Home Store - Curtains & Home Furnishings","description":"Curtains & Home Furnishings","phone":"8939063190","email":"Saroj.thakur@ddecor.com","tagsvalue":"Curtains & Home Furnishings","tags":[{"tag":"Curtains & Home Furnishings"}],"schedule":"10.00 am to 9.00 pm\r<br>Contact Person : Saroj Thakur","address":"D'Decor Home Store,Ground Floor, No. 22, Khader Nawaz Khan Road,Nungambakkam, Chennai","country":"India","state":"Tamil Nadu","city":"Chennai","postal":"600006","priority":1},{"lat":"12.9758912","lng":"77.6038027","id":7313591,"name":"D'decor Home Store - Curtains & Home Furnishings","description":"Curtains & Home Furnishings","phone":"7049912208","email":"Rohit.goyal@ddecor.com","tagsvalue":"Curtains & Home Furnishings","tags":[{"tag":"Curtains & Home Furnishings"}],"schedule":"10.00 am to 9.00 pm\r<br>Contact Person :  Rohit Goyal ","address":"D'Decor Home Store, Kannan Building, No.89, Ground Floor,M G Road, Bangalore","country":"India","state":"Karnataka","city":"Bangalore","postal":"560001","priority":1},{"lat":"18.534193","lng":"73.8790482","id":7313592,"name":"D'decor Home Store -Curtains & Home Furnishings","description":"Curtains & Home Furnishings","phone":"9503308599","email":"Bundgarden@ddecor.com","tagsvalue":"Curtains & Home Furnishings","tags":[{"tag":"Curtains & Home Furnishings"}],"schedule":"10.00 am - 9.00 pm \r<br>Contact Person : Amit Salunke ","address":"Unit No. 1A (I) , 1A (II) & 1B, PT Gera Center,T.P.S. Sangamwadi, Bund Garden Road, Pune - 411001","country":"India","state":"Maharashtra","city":"Pune","postal":"411001","priority":1},{"lat":"18.5121957","lng":"73.8387336","id":7313593,"name":"D'decor Home Store - Curtains & Home Furnishings","description":"Curtains & Home Furnishings","phone":"9819342458","email":"karverd.pune@ddecor.com","tagsvalue":"Curtains & Home Furnishings","tags":[{"tag":"Curtains & Home Furnishings"}],"schedule":"10.00 am - 9.00 pm \r<br>Contact Person : Mitali Lavate ","address":"Raj Mohan, 34\/2 Opp Garware College,Karve Road, Pune - 411 004, India","country":"India","state":"Maharashtra","city":"Pune","postal":"411004","priority":1},{"lat":"17.4079006","lng":"78.4414482","id":7313594,"name":"D'decor Home Store - Curtains & Home Furnishings","description":"Curtains & Home Furnishings","phone":"9994242263","email":"banjarahills.hyderabad@ddecor.com","tagsvalue":"Curtains & Home Furnishings","tags":[{"tag":"Curtains & Home Furnishings"}],"schedule":"10.00 am to 9.00 pm\r<br>Contact Person : Anbu Ganpati","address":"Indraprasth, House No. 8-2-681\/7, Plot No 7, Next To Furniturewala Store,Road No. 12, Banjara Hills,Hyderabad, Telangana - 500 034 , India","country":"India","city":"Hyderabad","postal":" 500 034","priority":1},{"lat":"12.9913026","lng":"80.2166199","id":7313595,"name":"D'decor Home Store - Curtains & Home Furnishings","description":"Curtains & Home Furnishings","phone":"9790503747","email":"palladium.chennai@ddecor.com","tagsvalue":"Curtains & Home Furnishings","tags":[{"tag":"Curtains & Home Furnishings"}],"schedule":"10.00 am to 9.00 pm\r<br>Contact Person : Yashwant Kumar AR","address":"D'Decor Home Store, Unit No F-15, 1st Floor, Palladium MallNo #142, Velachery Main Road, Chennai - 600042","country":"India","state":"Tamil Nadu","city":"Chennai","postal":"600042","priority":1},{"lat":"12.9559072","lng":"77.6412475","id":7313596,"name":"Drapes Avenue - Curtains & Home Furnishings","description":"Curtains & Home Furnishings","phone":"9845407360","email":"rajat@drapesavenue.net","tagsvalue":"Curtains & Home Furnishings","tags":[{"tag":"Curtains & Home Furnishings"}],"schedule":"10.30 am to 8.00 pm\r<br>Contact Person : Rajat Goenka\r<br>","address":"279 Amarjyoti Layout ,Intermediate Ring Road ,Domlur560071","country":"India","state":"Karnataka","city":"Bangalore","postal":"560071","priority":1},{"lat":"12.9796557","lng":"77.603634","id":7313597,"name":"Drapes Avenue - Curtains & Home Furnishings","description":"Curtains & Home Furnishings","phone":"9845013151","email":"vkgdrapes@gmail.com","tagsvalue":"Curtains & Home Furnishings","tags":[{"tag":"Curtains & Home Furnishings"}],"schedule":"10.30 am to 8.00 pm\r<br>Contact Person : Vinod Goenka","address":"Ramanashree Chambers ,37 lady Curzon Road ,Shivajinagar, Bangalore","country":"India","state":"Karnataka","city":"Bangalore","postal":"560001","priority":1},{"lat":"12.920094","lng":"77.6428301","id":7313598,"name":"Opal Natural Stone - Kitchen Countertops","description":"Kitchen Quartz Store","phone":"6364863631","email":"sales@opalnaturalstones.in","tagsvalue":"Kitchen Quartz Store","tags":[{"tag":"Kitchen Quartz Store"}],"schedule":"10.30 am to 8.00 pm\r<br>Contact Person : Kanchana","address":"Sy. 34 & 35, Opposite Agara Lake, Begur Hobli, Bengaluru South Taluk, 1st Block, Koramangala, Bengaluru","country":"India","state":"Karnataka","city":"Bangalore","postal":"560102","priority":1},{"lat":"12.9706741","lng":"77.5759873","id":7313599,"name":"Bharathi Electricals -  Schnieder Home Automation","description":"Schnieder Home Automation Systems","phone":"8861438791","email":"rahul@bharathielectricals.com","tagsvalue":"Home Automation Systems","tags":[{"tag":"Home Automation Systems"}],"schedule":"10.30 am to 8.00 pm\r<br>Contact Person : Rahul","address":"Bharathi Electricals, Building No. 10, Shakthi Complex, Basettypet, Chickpet, Bangalore-560053","country":"India","state":"Karnataka","city":"Bangalore","postal":"560053","priority":1},{"lat":"12.745628","lng":"77.4877089","id":7485470,"name":"Windowwagon Private Limited - Curtain Store","tagsvalue":"Curtains & Home Furnishings","tags":[{"tag":"Curtains & Home Furnishings"}],"schedule":"10 AM – 6 PM \r<br>Contact Person : Mr. Faraaz\r<br>weekly off : Sunday\r<br>\r<br>","address":"14\/3, doddakallasandra, Narayana Nagar Road, 1st Block, near Apco Cement Corp, Bengaluru","country":"India","state":"Karnataka","city":"Bengaluru","postal":"560078","priority":1},{"lat":"22.5508243","lng":"88.3502347","id":8794134,"name":"SKIPPER FURNISHINGS - RUSSEL ST. ","tagsvalue":"Curtains & Home Furnishings","tags":[{"tag":"Curtains & Home Furnishings"}],"schedule":"11AM TO 8PM\r<br>Contact Person : SHONAK AGARWAL\r<br>Contact Number : 9830964006\r<br>weekly off : Sunday","address":"5, Russel St, Park Street area","country":"India","state":"West Bengal","city":"Kolkata","postal":"700071","priority":1},{"lat":"22.521822","lng":"88.364768","id":8794138,"name":"SKIPPER FURNISHINGS - GARIAHAT","phone":"9830488383","tagsvalue":"Curtains & Home Furnishings","tags":[{"tag":"Curtains & Home Furnishings"}],"schedule":"11AM TO 8PM\r<br>Contact Person : PRAMOD SAROGI \r<br>Contact Number : 9830488383\r<br>weekly off : Sunday","address":"46\/31\/1, GARIAHAT ROAD","country":"India","city":"Kolkata","postal":"700029","priority":1},{"lat":"12.9303379","lng":"77.6868622","id":8794141,"name":"SKIPPER FURNISHINGS - SODEPUR","phone":"9830025771","tagsvalue":"Curtains & Home Furnishings","tags":[{"tag":"Curtains & Home Furnishings"}],"schedule":"11AM TO 8PM\r<br>Contact Person : SOURAV NAG\r<br>Contact Number : 9830025771\r<br>weekly off : Sunday","address":"4 NO DESHDANDHU NAGAR,STATION RD, SODEPUR","country":"India","state":"West Bengal","city":"Kolkata","postal":"700110","priority":1},{"lat":"22.6281709","lng":"88.43285809999999","id":8794151,"name":"SKIPPER FURNISHINGS - VIP ROAD","phone":"9830025771","tagsvalue":"Curtains & Home Furnishings","tags":[{"tag":"Curtains & Home Furnishings"}],"schedule":"11AM TO 8PM\r<br>Contact Person : SOURAV NAG\r<br>Contact Number : 9830025771\r<br>weekly off : Sunday","address":"VIP ROAD, ANUPAMA - 4,TEGHARIA, NEAR HALDIRAM PURE FOOD","country":"India","state":"West Bengal","city":"Kolkata","postal":"700052","priority":1},{"lat":"22.5835643","lng":"88.3912211","id":8794152,"name":"SKIPPER FURNISHINGS - KANKURGACHI","tagsvalue":"Curtains & Home Furnishings","tags":[{"tag":"Curtains & Home Furnishings"}],"schedule":"11AM TO 8PM\r<br>Contact Person : SHONAK AGARWAL\r<br>Contact Number : 9830964006\r<br>weekly off : Sunday","address":"P-14\/1, C. I. T. ROAD,SCHEME VII M, KANKURGACHI","country":"India","state":"West Bengal","city":"Kolkata","postal":"700054","priority":1},{"lat":"26.7791808","lng":"81.04990719999999","id":8794153,"name":"SKIPPER FURNISHINGS - LUCKNOW","phone":"9301019990","schedule":"11AM TO 8PM\r<br>Contact Person : ASHUTOSH TRIPATHI\r<br>Contact Number : 9301019990\r<br>weekly off : Sunday","address":"C\/O -BHADAWAR FURNITURE , A-5 PRATAP MARKET ,FAIZABAD ROAD , RAVINDRA PALLI, NEAR LEKRAJ METRO STATION, LUCKNOW, U.P","country":"India","state":"Uttar Pradesh","city":"LUCKNOW","postal":"226016","priority":1},{"lat":"21.1235056","lng":"79.06407639999999","id":8794156,"name":"SKIPPER FURNISHINGS -NAGPUR","phone":"9073641162","tagsvalue":"Curtains & Home Furnishings","tags":[{"tag":"Curtains & Home Furnishings"}],"schedule":"11AM TO 8PM\r<br>Contact Person : MOHAN GANDHLWAR\r<br>Contact Number : 9073641162\r<br>weekly off : Sunday","address":"SKIPPER FURNISHINGS -NAGPUR","country":"India","state":"Maharashtra","city":"Nagpur","postal":"440022","priority":1},{"lat":"17.718895","lng":"83.3030461","id":8794157,"name":"SKIPPER FURNISHINGS - VIZAG","phone":"9885584488","tagsvalue":"Curtains & Home Furnishings","tags":[{"tag":"Curtains & Home Furnishings"}],"schedule":"11AM TO 8PM\r<br>Contact Person : NILESH JAIN\r<br>Contact Number : 9885584488\r<br>weekly off : Sunday","address":"SHOP NO. 5 LEELA PLAZA,DABBA GARDENS","country":"India","city":"Vizag","postal":"530020","priority":1},{"lat":"17.4256097","lng":"78.4494694","id":8794160,"name":"SKIPPER FURNISHINGS - HYDERABAD","phone":"9885560071","tagsvalue":"Curtains & Home Furnishings","tags":[{"tag":"Curtains & Home Furnishings"}],"schedule":"11AM TO 8PM\r<br>Contact Person : PRATEEK AGARWAL\r<br>Contact Number : 9885560071\r<br>weekly off : Sunday","address":"6-3-351, RAVI CHAMBERS,ROAD NO. 1,BANJARA HILLS,NAGARJUNA CIRCLE","country":"India","city":"HYDERABAD","postal":"500034","priority":1},{"lat":"28.4797677","lng":"77.088379","id":8794161,"name":"Fabuliv ","phone":"9643400878","tagsvalue":"Furniture & Decor","tags":[{"tag":"Furniture & Decor"}],"schedule":"11AM TO 8PM\r<br>Contact Person : Deepti\r<br>Contact Number : 9643400878\r<br>weekly off : Wednesday","address":"Shop no. 16-18, Upper Ground Floor, JMD Regent Arcade Mall, Mehrauli-Gurgaon Road, Sector 28, Gurugram","country":"India","city":"Gurugram","postal":"122001","priority":1},{"lat":"12.992414","lng":"77.70271439999999","id":8794162,"name":"MyCloudforest - Garden & Landscape","tagsvalue":"Garden & Landscape","tags":[{"tag":"Garden & Landscape"}],"schedule":"9am to 6pm\r<br>Contact Person : Vishal\r<br>Contact Number : 9108028762\r<br>weekly off : Sunday","address":"#324, the arcade, Brigade Metropolis, Mahadevpura, Bangalore","country":"India","city":"Bangalore ","postal":"560048","priority":1},{"lat":"17.4106296","lng":"78.43744029999999","id":8814557,"name":"Tas Marketing - Lighting Store ( Tisva ) ","phone":"9398449340","schedule":"10 AM - 8 PM\r<br>Sunday - 12 PM to 6 PM\r<br>Contact Person : Md . Fasiuddin\r<br>Contact Number : 9108028762\r<br>","address":"H. No. 8\/2\/684\/15(ground floor), road number 12, Banjara hills","country":"India","city":"Hyderabad ","priority":1},{"lat":"23.0454286","lng":"72.5158387","id":8814558,"name":"Hiteshu Tradelinks - Lighting Store ( Tisva ) ","phone":"9998958956","schedule":"11 AM - 8.30 PM\r<br>Contact Person : Mr Saurabh Mohite\r<br>Contact Number : 9998958956","address":"4, Zodiac square, opp. Gurudwara , S.G.Road  ","country":"India","state":"Gujarat","city":"Ahmedabad","postal":"380054","priority":1},{"lat":"28.4922932","lng":"77.1459513","id":8814560,"name":"Aventia automation Pvt. Ltd. -  Lighting Store ( Tisva ) ","phone":"7838159123","schedule":"11 AM - 8 PM\r<br>Contact Person : Ms Palak jindal\r<br>Contact Number : 7838159123\r<br>","address":"Aventia Lights, 842, M.G. Road, Ghitorni, Opposite Pillar No. 118 ","country":"India","city":"New Delhi","postal":"110030","priority":1},{"lat":"28.6431205","lng":"77.1370793","id":8814562,"name":"Balakram Banarsidas & Sons - Lighting Store ( Tisva ) ","phone":"9041006687","tagsvalue":"Lights","tags":[{"tag":"Lights"}],"schedule":"11 AM - 7:30 PM\r<br>Contact Person : Ms Payal loach\r<br>Contact Number : 9041006687","address":"Balak Ram Banarsi Dass & Sons, 7 Rekha Enclave, Mansarovar Garden, Main Road Furniture Market, Kirti Nagar","country":"India","city":" New Delhi ","postal":"110015","priority":1},{"lat":"18.5067324","lng":"73.8786895","id":8814563,"name":"Bluerays - Lighting Store ( Tisva ) ","phone":"7276281158","tagsvalue":"Lights","tags":[{"tag":"Lights"}],"schedule":"10:30 AM - 8.30 PM\r<br>Sunday - weekly off\r<br>Contact Person : Mr. Abhinav Anand\r<br>Contact Number : 7276281158","address":"115, MG Road, Camp, Pune ","country":"India","city":"Pune","postal":"411001 ","priority":1},{"lat":"22.725155","lng":"75.86708999999999","id":8814564,"name":"Daya Worldwide - Lighting Store ( Tisva ) ","phone":"7566889898","tagsvalue":"Lights","tags":[{"tag":"Lights"}],"schedule":"11 AM - 8 PM\r<br>Sunday - Weekly Off\r<br>Contact Person : Mr. Sandeep Jain\r<br>Contact Number : 7566889898","address":"A-72-73 NEW SIYAGANJ main road , Pathar godam","country":"India","city":" Indore","postal":" 452001","priority":1},{"lat":"30.70609829999999","lng":"76.80101499999999","id":8814565,"name":"Disha Agencies - Lighting Store ( Tisva ) ","phone":"9501144829","tagsvalue":"Lights","tags":[{"tag":"Lights"}],"schedule":"11 AM - 8 PM\r<br>Contact Person : Mr. Gagandeep Singh\r<br>Contact Number : 9501144829","address":"Elante Mall Store, Shop No.246, II Floor, Elante Mall,(CSJ InfrastructurePvt. Ltd),178-178A, Indutrial & Business Park Phase-1","country":"India","city":"Chandigarh","postal":"160002","priority":1},{"lat":"30.3153839","lng":"78.010122","id":8814566,"name":"Shriji Enterprises - Lighting Store ( Tisva ) ","phone":"8755685019","tagsvalue":"Lights","tags":[{"tag":"Lights"}],"schedule":"10 AM - 8 PM\r<br>Contact Person : Mr. Shubham\r<br>Contact Number : 8755685019","address":"GH towers, Opp PF office, GMS Road","city":"Dehradun ","postal":"248001","priority":1}]